City_ID,City,Country,Max Temp,Current Description,Lat,Lng,Hotel Name
0,Rio De Janeiro,BR,75.2,moderate rain,-22.9,-43.21,Windsor Guanabara Hotel
1,Santa Isabel Do Rio Negro,BR,78.06,light rain,-0.41,-65.02,Hotel GSA
2,Honiara,SB,87.8,few clouds,-9.43,159.95,Heritage Park Hotel
3,Misratah,LY,82.89,clear sky,32.38,15.09,فندق الماسة
8,Atuona,PF,78.66,light rain,-9.8,-139.03,Villa Enata
13,Cockburn Town,TC,84.2,scattered clouds,21.46,-71.14,Osprey Beach Hotel
15,Tomatlan,MX,77.88,moderate rain,19.93,-105.25,Norma franco
26,Kavaratti,IN,81.28,light rain,10.57,72.64,Bismillah Hotel And Lodging
28,Dicabisagan,PH,81.34,overcast clouds,17.08,122.42,
31,Sakakah,SA,78.8,clear sky,29.97,40.21,Fakhamat Al Orjoana Apartment
33,Nishihara,JP,87.8,scattered clouds,26.18,127.76,Minshuku Agaihama
38,Itarema,BR,78.12,few clouds,-2.92,-39.92,Windvillage
39,Mabaruma,GY,75.78,light rain,8.2,-59.78,
48,Panguna,PG,76.03,moderate rain,-6.32,155.48,
51,Butaritari,KI,81.95,clear sky,3.07,172.79,Isles Sunset Lodge
54,Kapaa,US,86.0,few clouds,22.08,-159.32,Sheraton Kauai Resort at Coconut Beach
58,Sorong,ID,78.15,overcast clouds,-0.88,131.25,The Waigo Hotel
61,Quesnel,CA,89.6,clear sky,53.0,-122.5,Ramada Limited Quesnel
62,Wilmington,US,82.4,clear sky,34.23,-77.94,"Hotel Ballast Wilmington, Tapestry Collection by Hilton"
63,Savannah Bight,HN,84.51,broken clouds,16.45,-85.85,Villa on Dunbar Rock
64,Norsup,VU,84.2,broken clouds,-16.07,167.38,Nabelchel Bungalows
65,Buraydah,SA,84.2,scattered clouds,26.33,43.98,Mövenpick Hotel Qassim
72,Port Hardy,CA,77.0,few clouds,50.7,-127.42,Airport Inn
74,Katsuura,JP,88.0,broken clouds,35.13,140.3,Katsuura Hotel Mikazuki
77,Padang,ID,77.67,broken clouds,-0.95,100.35,Mercure Padang
79,Hithadhoo,MV,83.46,scattered clouds,-0.6,73.08,Scoop Guest House
80,Urumqi,CN,75.2,clear sky,43.8,87.6,Hua Ling Grand Hotel Urumqi
81,Maningrida,AU,76.53,clear sky,-12.07,134.27,Dhukurrdji Lodge
86,Acajutla,SV,77.0,scattered clouds,13.59,-89.83,Stop.
96,Manokwari,ID,83.53,light rain,-0.87,134.08,Swiss Belhotel Manokwari
100,Funehiki,JP,82.0,few clouds,37.43,140.58,花の湯
104,Samarai,PG,76.26,scattered clouds,-10.62,150.67,Nuli Sapi
109,Tuxpan,MX,75.2,overcast clouds,19.55,-103.4,Hotel y Restaurante Campestre La Cabaña
116,Hanna,CA,84.0,scattered clouds,51.63,-111.9,"West View Motel, Hanna, AB"
119,Waounde,SN,87.8,few clouds,15.26,-12.87,
120,Champerico,GT,84.2,thunderstorm,14.3,-91.92,"Hotel y restaurante ""El Diamante"""
121,Vaini,TO,75.2,broken clouds,-21.2,-175.2,Keleti Beach Resort
122,Labuhan,ID,77.59,scattered clouds,-6.88,112.21,bador sepret
123,Victoria,HK,82.0,overcast clouds,22.29,114.16,Mini Hotel Central
124,Kulhudhuffushi,MV,82.44,overcast clouds,6.62,73.07,Haajy Guest House 1
129,Georgetown,MY,77.0,few clouds,5.41,100.34,Cititel Penang
130,Hami,CN,75.67,clear sky,42.8,93.45,Laoyutang Resort
131,Mayo,US,75.0,moderate rain,38.89,-76.51,Resorts Resource Group International
132,Sao Filipe,CV,78.46,broken clouds,14.9,-24.5,Tortuga B&B
134,Adre,TD,75.33,light rain,13.47,22.2,
135,Hasaki,JP,88.0,broken clouds,35.73,140.83,Inubosaki Kanko Hotel
136,Padilla,CO,77.0,broken clouds,3.22,-76.31,La Granadina
141,Guerrero Negro,MX,81.54,clear sky,27.98,-114.06,"Casa Laguna, Bed & Breakfast"
146,Daru,PG,78.39,few clouds,-9.08,143.21,New century hotel
151,Palmer,US,75.2,light rain,42.16,-72.33,Wedgewood Motel
153,Bhatkal,IN,78.24,moderate rain,13.97,74.57,SPOT ON 61793 Chaya Residency SPOT
160,Evans,US,81.0,very heavy rain,33.53,-82.13,Select Corporate Housing - Augusta GA Furnished Apartments
163,Auki,SB,86.4,broken clouds,-8.77,160.7,Auki Motel
168,Guilin,CN,75.2,scattered clouds,25.28,110.29,Grand 0773 Hotel
181,Nagato,JP,84.2,few clouds,34.38,131.2,いそう庵
184,Hilo,US,84.2,broken clouds,19.73,-155.09,Hilo Hawaiian Hotel
185,Jasper,US,87.8,few clouds,37.2,-94.35,Guest House Motel
186,Puerto Escondido,MX,78.8,moderate rain,15.85,-97.07,Aldea del Bazar Hotel and Spa
192,The Valley,AI,84.2,shower rain,18.22,-63.06,CeBlue Villas & Beach Resort
194,Miranda,CO,77.0,broken clouds,3.25,-76.23,Parqueadero toño lasso
196,Hambantota,LK,79.48,broken clouds,6.12,81.12,Bungalow 63
199,Filingue,NE,87.8,overcast clouds,14.35,3.32,
201,Santa Rosa,PH,84.0,overcast clouds,14.31,121.11,Amethyst Econotel
202,Namatanai,PG,83.62,clear sky,-3.67,152.43,Namatanai Hotel
203,Jacqueville,CI,75.2,scattered clouds,5.21,-4.41,Hotel Le Martin Pecheur
204,Ixtapa,MX,86.0,light rain,20.7,-105.2,Container Inn Puerto Vallarta
207,Anloga,GH,75.2,scattered clouds,5.79,0.9,Dey Lodge
217,Petrolina,BR,77.56,clear sky,-9.4,-40.5,JB Hotel
220,Manoel Urbano,BR,83.86,broken clouds,-8.84,-69.26,Baixada Beira Rio
221,Ravar,IR,79.05,scattered clouds,31.27,56.81,computertik
227,Sulangan,PH,83.23,light rain,11.14,123.72,Maia's Beach Resort
229,Barra,BR,78.82,clear sky,-11.09,-43.14,Motel Albatroz
230,Lorengau,PG,83.01,light rain,-2.02,147.27,Lorengau Harbourside Hotel
231,San Andres,CO,84.2,broken clouds,12.58,-81.7,Hotel Arena Blanca
232,Akyab,MM,80.83,moderate rain,20.15,92.9,Hotel Memory
235,Jiutai,CN,78.8,mist,44.15,125.83,Jinhua Restaurant
242,Waddan,LY,81.66,clear sky,29.16,16.14,محل الشريف محمد العايب
249,Saint-Louis,SN,87.8,scattered clouds,16.33,-15.0,
250,Jati,PK,83.89,overcast clouds,24.35,68.27,
251,Sagua La Grande,CU,86.0,broken clouds,22.81,-80.08,Hotel Amaro
252,Vaitape,PF,79.27,few clouds,-16.52,-151.75,Conrad Bora Bora Nui
255,Sabancuy,MX,84.15,scattered clouds,18.97,-91.18,Hotel Aguilar
259,San Quintin,MX,77.54,light rain,30.48,-115.95,Old Mill Hotel
261,Mount Isa,AU,77.0,clear sky,-20.73,139.5,ibis Styles Mt Isa Verona
264,Aksu,CN,76.03,broken clouds,41.12,80.26,Pudong Holiday Hotel
269,Port Moresby,PG,78.8,smoke,-9.44,147.18,Lamana Hotel
272,Mana,GF,79.52,overcast clouds,5.66,-53.78,LE SAMANA
275,Muscat,OM,86.0,few clouds,23.61,58.59,Mutrah Hotel
277,Sandakan,MY,75.2,scattered clouds,5.84,118.12,Hotel Sandakan
279,Marsh Harbour,BS,84.74,overcast clouds,26.54,-77.06,Abaco Beach Resort
285,Gushikawa,JP,84.2,clear sky,26.35,127.87,Kirari Guest House
286,Acapulco,MX,82.4,overcast clouds,16.86,-99.89,HS Hotsson Smart Acapulco
287,Bengkulu,ID,75.61,light rain,-3.8,102.27,Grage Hotel Bengkulu
289,Hamilton,US,82.4,scattered clouds,39.18,-84.53,Six Acres Bed & Breakfast
292,Shenjiamen,CN,82.13,clear sky,29.96,122.3,Jinjiang Inn Zhoushan Putuo Shenjiamen
293,Savannakhet,LA,75.22,light rain,16.57,104.75,โรงแรม ริเวอร์ ฟร้อนท์
296,Naze,JP,87.8,few clouds,28.37,129.48,奄美ポートタワーホテル
299,Sawankhalok,TH,75.2,few clouds,17.32,99.83,Swankaburi Boutique Hotel
301,Vila Velha,BR,75.2,scattered clouds,-20.33,-40.29,Hotel Vitória Palace
302,Apollonia,GR,75.0,clear sky,36.97,24.72,Hotel Anthousa
310,Catuday,PH,81.07,light rain,16.29,119.81,GResort
311,Faanui,PF,78.44,few clouds,-16.48,-151.75,Bora-Bora Pearl Beach Resort & Spa
317,San Rafael Del Sur,NI,82.4,moderate rain,11.85,-86.44,Hospedaje El Chino
319,Alofi,NU,78.8,broken clouds,-19.06,-169.92,Taloa Heights
322,Amnat Charoen,TH,77.07,light rain,15.86,104.63,โรงแรมระเมียรดาวบูติคเพลส
324,Esperantinopolis,BR,80.65,scattered clouds,-4.87,-44.71,
326,Pacifica,US,84.0,overcast clouds,37.61,-122.49,"Pacifica Lighthouse, Trademark Collection by Wyndham"
329,Edson,CA,82.4,clear sky,53.58,-116.44,Holiday Inn Express & Suites Edson
330,Anan,JP,86.0,few clouds,33.92,134.65,Royal Garden Hotel
331,Tual,ID,78.33,scattered clouds,-5.67,132.75,Grand Vilia Hotel
335,Aden,YE,85.3,broken clouds,12.78,45.04,Sama Emirate Hotel
336,Sinnamary,GF,78.87,overcast clouds,5.38,-52.95,ALETHEIA Appartement Sinnamary
338,Bhasawar,IN,84.96,moderate rain,27.03,77.03,Sidhh baba mandir
342,Sambrial,PK,82.4,smoke,32.47,74.35,Sheraton Point Marriage Hall
348,Bud,US,81.0,scattered clouds,39.45,-86.18,Madsion Scouts Camp
349,Merauke,ID,78.03,clear sky,-8.47,140.33,
353,Halacho,MX,82.4,broken clouds,20.48,-90.08,Posada Marina
357,Reyes,BO,81.03,scattered clouds,-14.32,-67.38,
360,Bitung,ID,78.8,few clouds,1.45,125.18,Peoplesight Learning Center ( PLC )
361,Cayenne,GF,78.8,broken clouds,4.93,-52.33,Hôtel Le Dronmi
362,Las Cruces,US,84.2,scattered clouds,32.31,-106.78,SpringHill Suites by Marriott Las Cruces
363,Erice,IT,78.8,scattered clouds,38.04,12.59,Hotel Villa San Giovanni
364,Provost,CA,85.5,broken clouds,52.35,-110.27,Provost Motor Inn
367,San Cristobal,VE,84.2,scattered clouds,7.77,-72.22,Pirineos
369,Najran,SA,84.2,overcast clouds,17.49,44.13,محمد هادي ال فطيح
370,Praia Da Vitoria,PT,75.2,scattered clouds,38.73,-27.07,Hotel Branco I
372,Trincomalee,LK,80.44,overcast clouds,8.57,81.23,Welcombe Hotel
377,Carutapera,BR,77.59,overcast clouds,-1.2,-46.02,Lidera
378,Tak,TH,75.2,broken clouds,16.58,98.83,
379,Wanning,CN,81.66,broken clouds,18.8,110.4,Paradise Hotel
380,Tiarei,PF,82.4,few clouds,-17.53,-149.33,Le Rocher de Tahiti
383,Cabanas,CU,86.0,scattered clouds,22.98,-82.92,Villa Luis Montesino y Anabel
384,San Patricio,MX,82.4,overcast clouds,19.22,-104.7,Hotel Cabo Blanco
388,Salinopolis,BR,79.79,broken clouds,-0.61,-47.36,Hotel Salinópolis
390,Kavieng,PG,83.32,clear sky,-2.57,150.8,Nusa Island Retreat
391,Moussoro,TD,84.76,broken clouds,13.64,16.49,Pharmacie alnadja Moussoro
393,Kudahuvadhoo,MV,82.92,broken clouds,2.67,72.89,Kudahuvadhoo Retreat
398,Coos Bay,US,81.0,clear sky,43.37,-124.22,Best Western Holiday Hotel
400,Starkville,US,90.0,clear sky,33.45,-88.82,Hilton Garden Inn Starkville
402,Kahului,US,87.8,scattered clouds,20.89,-156.47,Maui Seaside Hotel
406,Virginia Beach,US,77.0,broken clouds,36.85,-75.98,Hilton Virginia Beach Oceanfront
407,Ailigandi,PA,81.07,few clouds,9.23,-78.02,akwa reef lodge
408,Bathsheba,BB,78.8,light rain,13.22,-59.52,Atlantis Hotel
410,Rosarito,MX,86.0,scattered clouds,32.33,-117.03,Hotel Festival Plaza Rosarito
413,Sola,VU,80.35,few clouds,-13.88,167.55,Leumerus Bungalows
417,Sangin,AF,76.19,few clouds,32.07,64.84,
421,Port Blair,IN,81.01,light rain,11.67,92.75,Fortune Resort Bay Island
423,Praya,CV,80.6,few clouds,14.92,-23.51,LT Aparthotel
424,Isangel,VU,82.4,overcast clouds,-19.55,169.27,Volcano Sea View Tree House
427,San Fernando,PH,84.0,broken clouds,15.03,120.69,Maharlika Hostel
428,Sooke,CA,81.0,few clouds,48.37,-123.73,Sooke Harbour House Hotel & Resort
434,Sur,OM,88.38,broken clouds,22.57,59.53,Sur Plaza Hotel
435,Progreso,MX,82.4,broken clouds,21.28,-89.67,Playa Linda Hotel
438,Tatawin,TN,89.6,clear sky,32.93,10.45,Sangho Privilege Tataouine
439,Jalu,LY,81.84,clear sky,29.03,21.55,Jalu Hotel
440,Gorontalo,ID,81.41,few clouds,0.54,123.06,Maqna Hotel by Prasanthi
442,Slave Lake,CA,78.8,haze,55.28,-114.77,Super 8 by Wyndham Slave Lake AB
443,Camocim,BR,78.53,scattered clouds,-2.9,-40.84,Hotel Ilha do Amor
449,Dicamay,PH,78.96,overcast clouds,16.76,122.0,
456,Bolobo,CD,76.55,light rain,-2.17,16.23,
457,Xuanzhou,CN,84.79,clear sky,30.95,118.76,Nanfang Hotel
459,Yatou,CN,78.49,overcast clouds,37.15,122.38,GreenTree Hotel Rongcheng Bus Station
460,Kununurra,AU,75.2,clear sky,-15.77,128.73,Hotel Kununurra
461,Andros,GR,77.0,clear sky,37.83,24.93,Micra Anglia Hotel - Andros
463,Destin,US,89.6,clear sky,30.39,-86.5,Inn On Destin Harbor
466,Bac Lieu,VN,80.94,moderate rain,9.29,105.72,Khách sạn Sài Gòn Bạc Liêu
471,Wewak,PG,82.13,clear sky,-3.55,143.63,In Wewak Boutique Hotel
472,Kouqian,CN,75.74,overcast clouds,43.64,126.46,Guotai Bathing Hotel
475,Cagliliog,PH,81.86,light rain,13.9,123.29,
477,Culebra,PR,84.2,broken clouds,18.3,-65.3,Palmetto Guesthouse
482,Davila,PH,77.0,broken clouds,18.47,120.58,SITIO 3 DAVILA PASUQUIN
483,Pizarro,CO,77.95,moderate rain,4.95,-77.37,"Playa Pizarro, Bajo Baudó, Chocó, Colombia"
484,Meulaboh,ID,76.62,scattered clouds,4.14,96.13,Kost Pria
486,Navrongo,GH,77.45,scattered clouds,10.9,-1.09,Azakka Hotel
490,Mahibadhoo,MV,82.81,overcast clouds,3.78,72.97,Omadhoo Inn
492,Balabac,PH,81.3,light rain,7.99,117.06,Sing and Swing Lodge
493,Ligayan,PH,82.69,light rain,4.65,119.47,
494,Mandali,IQ,83.91,clear sky,33.75,45.55,بيت خالد امين
495,Santa Lucia,ES,77.0,few clouds,27.91,-15.54,Hotel Viverde Las Tirajanas
498,Dingle,PH,79.84,overcast clouds,11.0,122.67,Camp Pasica
502,Pandan,PH,82.78,overcast clouds,14.05,124.17,Bonifacio Lodge
506,Nara,JP,89.6,scattered clouds,34.69,135.8,Guesthouse Nara Komachi
507,Puri,IN,82.4,haze,19.8,85.85,OYO 1577 Hotel Shree Hari Grand
508,Hobbs,US,78.8,clear sky,32.7,-103.14,Best Western Executive Inn
512,Oistins,BB,78.8,light rain,13.07,-59.53,Butterfly Beach Hotel
517,Callaguip,PH,77.0,broken clouds,18.07,120.49,Pangil Beach Resort
518,Ipora,BR,78.28,scattered clouds,-16.44,-51.12,Oásis Motel
525,Cururupu,BR,75.56,scattered clouds,-1.83,-44.87,Pousada Través'cia
526,Lompoc,US,82.99,clear sky,34.64,-120.46,Holiday Inn Express Lompoc
530,Sampit,ID,77.31,broken clouds,-2.53,112.95,Aquarius Boutique Hotel Sampit
534,Borbon,PH,80.6,broken clouds,10.84,124.03,CATUBIG RESIDENCES
536,Sabang,ID,82.29,clear sky,5.89,95.32,Hotel Citra
537,Natal,BR,77.0,few clouds,-5.79,-35.21,Villa Park Hotel | Natal
538,Helong,CN,82.89,broken clouds,42.54,129.0,Helong Hotel
545,Black Forest,US,84.2,clear sky,39.01,-104.7,Ponderosa Lodge
546,Qiongshan,CN,77.0,fog,20.01,110.35,Sun City Restaurant
548,Altamira,BR,82.53,broken clouds,-3.2,-52.21,Requinte Hotel
549,Korla,CN,75.99,scattered clouds,41.76,86.15,Gulisitan Hotel
550,Latung,PH,81.27,overcast clouds,5.5,120.88,
551,Saint-Georges,GD,80.6,scattered clouds,12.06,-61.75,Siesta Hotel
552,Pratapgarh,IN,75.72,light rain,24.03,74.78,Ratna Hotel
559,Port Antonio,JM,86.0,broken clouds,18.18,-76.46,Trident Hotel
560,Bairiki,KI,86.0,few clouds,1.33,172.98,Tarawa Boutique Hotel
563,Prince Albert,CA,89.6,broken clouds,53.2,-105.77,Holiday Inn Express & Suites Prince Albert
564,Todos Santos,MX,84.0,light rain,23.45,-110.22,Hotel California Todos Santos
568,Nokha,IN,84.29,few clouds,27.6,73.42,Fauji hotel and Restaurant9636024676
569,Rodrigues Alves,BR,82.76,broken clouds,-7.74,-72.65,Pousada Aconchego
570,Praia,CV,80.6,few clouds,14.92,-23.51,LT Aparthotel
572,Badarwas,IN,78.03,light rain,24.97,77.57,Jat Tea Stall
580,Tucurui,BR,83.3,scattered clouds,-3.77,-49.67,BBB Rooms Centro Tucurui PA
590,Ramhormoz,IR,80.02,clear sky,31.28,49.6,فروشگاه مطورعلیان
596,Simiti,CO,77.36,overcast clouds,7.96,-73.94,Hospedaje Anatulia
598,Ilan,TW,84.0,broken clouds,24.76,121.75,Dar Chen Hotel
604,Marysville,US,89.01,clear sky,48.05,-122.18,Holiday Inn Express & Suites Marysville
606,Half Moon Bay,US,86.0,clear sky,37.46,-122.43,"The Ritz-Carlton, Half Moon Bay"
607,Kieta,PG,82.98,light rain,-6.22,155.63,
609,Itoman,JP,87.8,few clouds,26.12,127.67,Southern Beach Hotel & Resort Okinawa
611,Boyolangu,ID,75.76,broken clouds,-8.12,111.89,Yos ega cv
612,Shimonoseki,JP,88.0,few clouds,33.95,130.95,Toyoko INN Shimonoseki Kaikyo Yume Tower mae
613,San Ignacio,BZ,77.0,overcast clouds,17.16,-89.07,Rainforest Haven Inn
614,Trindade,BR,78.8,few clouds,-16.65,-49.49,Pousada Central
615,Olinda,BR,78.8,few clouds,-8.01,-34.86,Hotel 5 Sóis
617,Ransang,PH,80.31,overcast clouds,8.96,117.58,
622,Ormara,PK,82.99,overcast clouds,25.21,64.64,
623,Thinadhoo,MV,84.29,overcast clouds,0.53,72.93,
627,Camacari,BR,78.8,scattered clouds,-12.7,-38.32,Sítio Blasi
628,Mahuva,IN,80.42,light rain,21.09,71.76,Hotel Blue Diamond.
629,Barras,BR,84.83,broken clouds,-4.24,-42.29,DIMAS HOTEL
634,Ternate,ID,81.57,light rain,0.8,127.4,Grand Dafam Bela Ternate
638,Lipovtsy,RU,75.47,overcast clouds,44.2,131.72,"Ooo ""Atkom"""
640,Lubao,PH,84.0,broken clouds,14.92,120.55,Hacienda Gracia
641,Cam Ranh,VN,82.4,scattered clouds,11.92,109.16,OYO 598 Peony Hotel
644,Labelle,US,80.6,scattered clouds,26.76,-81.44,La Belle Motel
645,Urucara,BR,86.34,scattered clouds,-2.54,-57.76,Pousada Maria Bonita
648,Marawi,PH,78.01,light rain,8.0,124.29,Salihmaruhom
650,Mitsamiouli,KM,76.37,scattered clouds,-11.38,43.28,Foyer ADM
651,Puerto Narino,CO,78.8,broken clouds,-3.77,-70.38,Eware Refugio Amazonico
652,Hobyo,SO,76.03,broken clouds,5.35,48.53,Osmani Hotel
655,Worthington,US,81.0,scattered clouds,40.09,-83.02,Sheraton Suites Columbus
657,Ha Tinh,VN,78.48,light rain,18.33,105.9,Phú Quý
660,Salalah,OM,77.0,haze,17.02,54.09,HAMDAN PLAZA HOTEL
667,Tecoanapa,MX,79.14,moderate rain,16.52,-98.75,Hotel Manglares
668,Adeje,ES,77.0,clear sky,28.12,-16.73,Gran Tacande Wellness & Relax Costa Adeje
674,Freetown,SL,75.79,overcast clouds,8.48,-13.23,The Country Lodge Hotel
676,Damara,CF,78.8,few clouds,4.96,18.7,
677,Salvador,SV,84.2,scattered clouds,13.83,-88.92,Chico's Ranch
679,Oriximina,BR,85.68,scattered clouds,-1.77,-55.87,Pousada Tia Amélia
681,Allen,US,78.8,broken clouds,41.07,-85.01,Holiday Inn Express Fort Wayne-East (New Haven)
682,Santo Domingo,DO,86.0,scattered clouds,18.5,-69.99,Micro Hotel Condo Suites
683,Escarcega,MX,78.62,moderate rain,18.61,-90.75,Hotel Maria Isabel
690,Gigmoto,PH,83.23,overcast clouds,13.78,124.39,Cj's Travellers Inn
692,Mataram,ID,75.2,scattered clouds,-8.58,116.12,Hotel Santika Mataram
698,Bucerias,MX,86.0,overcast clouds,20.75,-105.33,Villa del Palmar Flamingos Beach Resort & Spa Riviera Nayarit
702,New Iberia,US,89.6,clear sky,30.0,-91.82,La Quinta Inn & Suites by Wyndham New Iberia
706,Saint Anthony,US,75.99,few clouds,45.02,-93.22,Holiday Inn Express Roseville-St. Paul
707,Miyako,JP,77.04,broken clouds,39.64,141.95,Hotel Route Inn Miyako
712,Rudbar,AF,75.52,clear sky,30.15,62.6,
713,Sterling,US,78.01,clear sky,39.01,-77.43,Hampton Inn & Suites Washington-Dulles International Airport
714,Bawku,GH,77.99,broken clouds,11.06,-0.24,Ultimate Guest House
716,Cameta,BR,83.21,broken clouds,-2.24,-49.5,Hotel San Juan
717,Kokoda,PG,78.19,broken clouds,-8.88,147.74,Daito Guest House
